City_ID,City,Lat,Lng,Max Temp,Humidity,Cloudiness,Country,Date,Wind Speed
0,ilulissat,69.2167,-51.1,5.01,87.0,75.0,GL,1686412342.0,4.12
1,grytviken,-54.2811,-36.5092,1.9,99.0,100.0,GS,1686412342.0,4.61
2,tazovsky,67.4667,78.7,9.2,48.0,68.0,RU,1686412342.0,3.13
3,thompson,55.7435,-97.8558,18.09,42.0,40.0,CA,1686412343.0,3.6
4,tolanaro,-25.0319,46.9987,23.04,88.0,20.0,MG,1686412116.0,2.06
5,puerto natales,-51.7236,-72.4875,4.25,60.0,40.0,CL,1686412343.0,7.2
6,dudinka,69.4058,86.1778,5.9,48.0,4.0,RU,1686412343.0,2.56
7,san miguel,13.4833,-88.1833,28.78,79.0,0.0,SV,1686412343.0,1.54
8,nadi,-17.8,177.4167,22.0,73.0,20.0,FJ,1686412135.0,3.09
9,hawaiian paradise park,19.5933,-154.9731,20.73,85.0,40.0,US,1686412344.0,2.57
10,aasiaat,68.7098,-52.8699,3.62,83.0,100.0,GL,1686412344.0,13.26
11,ust-nera,64.5667,143.2,10.93,86.0,54.0,RU,1686412344.0,2.1
12,port-aux-francais,-49.35,70.2167,4.17,59.0,78.0,TF,1686412344.0,11.26
13,tarawa,1.419,172.984,29.05,79.0,40.0,KI,1686412344.0,2.06
14,sao joao da barra,-21.6403,-41.0511,28.05,55.0,0.0,BR,1686412344.0,3.21
16,sao felix do xingu,-6.6447,-51.995,33.28,42.0,37.0,BR,1686412345.0,6.59
17,kirsanov,52.6549,42.7224,15.6,80.0,92.0,RU,1686412345.0,2.56
18,blackmans bay,-43.0167,147.3167,10.85,79.0,68.0,AU,1686412345.0,0.55
19,bilibino,68.0546,166.4372,14.05,48.0,17.0,RU,1686412345.0,8.4
20,edinburgh of the seven seas,-37.0676,-12.3116,14.25,73.0,58.0,SH,1686412345.0,6.17
21,brookings,44.3114,-96.7984,25.03,74.0,75.0,US,1686412345.0,3.6
22,dryden,49.7833,-92.7503,13.16,58.0,20.0,CA,1686412346.0,0.8
23,jincheng,35.5022,112.8328,22.51,29.0,1.0,CN,1686412346.0,9.77
24,iqaluit,63.7506,-68.5145,2.85,86.0,100.0,CA,1686412346.0,1.05
25,nemuro,43.3236,145.575,9.57,96.0,99.0,JP,1686412346.0,7.37
26,utrik,11.2278,169.8474,27.59,84.0,100.0,MH,1686412346.0,6.48
27,adamstown,-25.066,-130.1015,20.57,56.0,75.0,PN,1686412346.0,0.86
28,bredasdorp,-34.5322,20.0403,14.12,72.0,48.0,ZA,1686412346.0,7.52
30,cadale,2.7603,46.3222,26.61,81.0,29.0,SO,1686412347.0,4.63
31,hithadhoo,-0.6,73.0833,28.98,72.0,46.0,MV,1686412347.0,3.28
32,yellowknife,62.456,-114.3525,13.29,71.0,75.0,CA,1686412347.0,5.14
33,upington,-28.4478,21.2561,15.15,29.0,0.0,ZA,1686412347.0,0.45
34,antsiranana,-12.2787,49.2917,26.42,69.0,20.0,MG,1686412347.0,2.47
35,waitangi,-43.9535,-176.5597,11.01,90.0,27.0,NZ,1686412347.0,1.54
36,invercargill,-46.4,168.35,4.85,86.0,84.0,NZ,1686412348.0,5.58
37,sitka,57.0531,-135.33,9.94,87.0,100.0,US,1686412348.0,2.63
38,lebu,-37.6167,-73.65,10.64,63.0,55.0,CL,1686412348.0,6.17
39,papatowai,-46.5619,169.4708,6.15,60.0,61.0,NZ,1686412348.0,2.16
40,ribeira grande,38.5167,-28.7,21.22,56.0,20.0,PT,1686412080.0,0.89
41,pinas,-3.6667,-79.65,22.62,67.0,23.0,EC,1686412348.0,8.79
42,palu,-0.8917,119.8707,24.85,96.0,60.0,ID,1686412349.0,4.44
43,kaspiyskiy,45.3929,47.3707,24.3,60.0,92.0,RU,1686412349.0,1.49
44,zaozersk,69.4005,32.4476,7.91,61.0,100.0,RU,1686412349.0,1.1
45,mutare,-18.9707,32.6709,20.16,29.0,70.0,ZW,1686412349.0,5.14
46,kangar,6.4414,100.1986,27.25,99.0,100.0,MY,1686412328.0,4.86
47,stanley,54.868,-1.6985,23.19,67.0,0.0,GB,1686412349.0,4.25
48,port shepstone,-30.7414,30.455,17.68,64.0,0.0,ZA,1686412349.0,3.25
49,rasony,55.9089,28.8126,17.31,33.0,7.0,BY,1686412350.0,2.87
50,mtinko,-4.55,34.85,21.15,48.0,84.0,TZ,1686412355.0,4.86
51,talnakh,69.4865,88.3972,5.67,60.0,3.0,RU,1686412355.0,3.13
52,lihue,21.9789,-159.3672,21.92,91.0,100.0,US,1686412355.0,5.71
53,new norfolk,-42.7826,147.0587,11.51,83.0,68.0,AU,1686412355.0,3.45
54,san antonio de pale,-1.4014,5.6325,25.02,83.0,100.0,GQ,1686412355.0,0.79
55,tapiramuta,-11.8472,-40.7914,26.53,43.0,56.0,BR,1686412355.0,1.54
56,khovd,48.0056,91.6419,23.8,26.0,26.0,MN,1686412355.0,2.49
57,badger,64.8,-147.5333,13.89,73.0,0.0,US,1686412356.0,2.23
58,tashtagol,52.7657,87.8894,16.58,99.0,99.0,RU,1686412356.0,5.02
59,breves,-1.6822,-50.4803,30.96,60.0,22.0,BR,1686412356.0,2.48
60,itamaraca,-7.7478,-34.8256,28.03,63.0,9.0,BR,1686412356.0,0.89
61,gamawa,12.1343,10.5396,36.7,29.0,80.0,NG,1686412356.0,3.09
62,grand baie,-20.0182,57.5802,24.26,72.0,3.0,MU,1686412356.0,3.02
63,st. john's,47.5649,-52.7093,10.71,97.0,100.0,CA,1686412160.0,1.54
64,albany,42.6001,-73.9662,20.53,63.0,23.0,US,1686412356.0,5.22
65,avarua,-21.2078,-159.775,22.03,100.0,40.0,CK,1686412356.0,1.8
66,porto novo,6.4965,2.6036,26.9,90.0,92.0,BJ,1686412357.0,3.38
67,tongliao,43.6125,122.2653,14.33,71.0,52.0,CN,1686412357.0,4.06
69,pudasjarvi,65.3833,26.9167,14.81,33.0,43.0,FI,1686412357.0,0.38
70,maragogi,-9.0122,-35.2225,26.83,70.0,67.0,BR,1686412357.0,3.6
71,puerto ayora,-0.7393,-90.3518,29.98,93.0,100.0,EC,1686412357.0,3.5
72,dzhubga,44.3211,38.7039,20.97,85.0,50.0,RU,1686412357.0,8.12
73,trujillo,-8.116,-79.03,22.98,78.0,100.0,PE,1686412358.0,11.99
75,masvingo,-20.0637,30.8277,20.35,29.0,8.0,ZW,1686412358.0,3.09
76,taroa,8.7058,171.2275,27.95,81.0,100.0,MH,1686412358.0,7.15
77,eyl,7.9803,49.8164,27.25,77.0,19.0,SO,1686412358.0,5.14
78,ushuaia,-54.8,-68.3,4.81,75.0,40.0,AR,1686412358.0,4.48
79,nantucket,41.2835,-70.0995,20.03,72.0,40.0,US,1686412276.0,9.03
80,punta del este,-34.9667,-54.95,13.06,66.0,100.0,UY,1686412358.0,3.36
81,namsos,64.4662,11.4957,20.95,43.0,12.0,NO,1686412120.0,3.6
82,ghat,24.9647,10.1728,41.98,9.0,9.0,LY,1686412359.0,0.45
83,nar'yan-mar,67.6713,53.087,5.11,64.0,100.0,RU,1686412359.0,1.42
84,itaueira,-7.6033,-43.0256,34.78,30.0,1.0,BR,1686412359.0,4.63
85,kodiak,57.79,-152.4072,6.73,93.0,100.0,US,1686412359.0,3.09
86,port elizabeth,-33.918,25.5701,15.61,85.0,1.0,ZA,1686412359.0,3.76
87,spring creek,40.7266,-115.5859,14.11,47.0,23.0,US,1686412359.0,2.57
88,loanda,-8.8368,13.2343,27.0,65.0,20.0,AO,1686412359.0,1.54
89,hamilton,39.1834,-84.5333,27.67,39.0,20.0,US,1686412359.0,1.96
90,sao raimundo das mangabeiras,-7.0219,-45.4811,34.09,34.0,2.0,BR,1686412096.0,1.76
91,isafjordur,66.0755,-23.124,8.02,53.0,75.0,IS,1686412360.0,2.06
94,college,64.8569,-147.8028,13.94,73.0,40.0,US,1686412360.0,1.54
95,jumla,29.2747,82.1838,14.57,79.0,76.0,NP,1686412360.0,6.31
96,susuman,62.7833,148.1667,10.98,78.0,57.0,RU,1686412360.0,3.31
97,bikenibeu village,1.3673,173.1241,28.98,79.0,40.0,KI,1686412360.0,4.73
98,tsiombe,-25.3,45.4833,19.76,87.0,0.0,MG,1686412361.0,1.54
99,montpelier,44.2601,-72.5754,18.08,75.0,100.0,US,1686412361.0,8.11
100,juneau,58.3019,-134.4197,11.23,95.0,75.0,US,1686412086.0,1.24
101,crane,31.3974,-102.3501,31.37,22.0,82.0,US,1686412366.0,1.6
102,bafq,31.6128,55.4107,32.92,22.0,5.0,IR,1686412366.0,4.12
103,dalbandin,28.8947,64.4101,34.78,14.0,11.0,PK,1686412366.0,2.0
104,coquimbo,-29.9533,-71.3436,13.85,100.0,100.0,CL,1686412288.0,3.43
105,margaret river,-33.95,115.0667,13.93,68.0,88.0,AU,1686412366.0,2.01
106,iaciara,-14.0958,-46.6317,33.77,27.0,19.0,BR,1686412367.0,2.88
107,puerto aysen,-45.4,-72.7,4.95,90.0,90.0,CL,1686412367.0,1.84
109,bethel,41.3712,-73.414,22.86,60.0,0.0,US,1686412367.0,4.2
110,gantiadi,43.3811,40.0794,23.09,83.0,100.0,GE,1686412367.0,4.22
111,leh,34.1667,77.5833,11.99,40.0,47.0,IN,1686412367.0,1.43
112,mu'minobod,38.1085,70.0285,28.35,30.0,1.0,TJ,1686412367.0,8.54
113,nacala,-14.5428,40.6728,23.52,80.0,1.0,MZ,1686412367.0,1.85
114,tura,25.5198,90.2201,24.18,94.0,100.0,IN,1686412368.0,7.37
115,wailua homesteads,22.0669,-159.378,21.59,93.0,100.0,US,1686412368.0,1.97
116,carnarvon,-24.8667,113.6333,19.7,69.0,0.0,AU,1686412368.0,4.47
117,tiksi,71.6872,128.8694,3.27,73.0,20.0,RU,1686412368.0,4.5
118,singaraja,-8.112,115.0882,26.05,83.0,42.0,ID,1686412368.0,3.14
119,west island,-12.1568,96.8225,25.99,83.0,40.0,CC,1686412368.0,6.8
120,kupino,54.3663,77.2981,17.37,52.0,68.0,RU,1686412368.0,1.56
121,papao,-17.75,-149.55,21.82,67.0,82.0,PF,1686412368.0,4.35
122,altai,46.3722,96.2583,16.61,37.0,11.0,MN,1686412369.0,9.08
123,lompoc,34.6391,-120.4579,16.55,80.0,100.0,US,1686412369.0,1.3
124,langepas,61.2544,75.2124,13.65,50.0,40.0,RU,1686412369.0,12.6
125,constantia,44.1833,28.65,21.5,80.0,100.0,RO,1686412369.0,1.18
126,uturoa,-16.7333,-151.4333,26.35,68.0,100.0,PF,1686412369.0,2.72
127,lingig,8.0389,126.4125,25.88,88.0,100.0,PH,1686412369.0,6.17
128,nagqu,31.5,92.0,3.42,90.0,94.0,CN,1686412369.0,5.98
129,kavaratti,10.5669,72.642,29.7,77.0,94.0,IN,1686412369.0,0.0
130,berezovyy,51.6667,135.7,15.97,83.0,60.0,RU,1686412370.0,5.27
131,hobyo,5.3505,48.5268,26.92,82.0,65.0,SO,1686412370.0,0.71
132,hermanus,-34.4187,19.2345,13.78,77.0,60.0,ZA,1686412370.0,3.09
133,buka,40.8108,69.1986,29.63,30.0,3.0,UZ,1686412370.0,0.5
134,kapuskasing,49.4169,-82.4331,9.05,76.0,100.0,CA,1686412370.0,1.34
135,olonkinbyen,70.9221,-8.7187,1.95,99.0,100.0,SJ,1686412370.0,4.67
136,kununurra,-15.7667,128.7333,19.99,83.0,48.0,AU,1686412370.0,0.58
137,el calafate,-50.3408,-72.2768,1.7,71.0,2.0,AR,1686412370.0,6.04
138,hotan,37.0997,79.9269,28.49,14.0,47.0,CN,1686412371.0,3.86
139,manicore,-5.8092,-61.3003,24.97,94.0,75.0,BR,1686412371.0,1.14
140,chiras,35.4167,65.9823,15.0,52.0,78.0,AF,1686412371.0,3.1
141,sao vicente,-23.9631,-46.3919,31.98,31.0,0.0,BR,1686412371.0,3.6
142,novodvinsk,64.4165,40.8122,7.44,61.0,91.0,RU,1686412371.0,10.59
143,galeana,24.8333,-100.0667,25.19,52.0,13.0,MX,1686412371.0,0.89
144,enewetak,11.3474,162.3373,28.02,79.0,99.0,MH,1686412371.0,1.54
145,makarska,43.2969,17.0178,21.33,81.0,99.0,HR,1686412372.0,2.02
146,whangarei,-35.7317,174.3239,7.34,96.0,15.0,NZ,1686412372.0,3.46
147,charters towers,-20.1,146.2667,15.18,89.0,1.0,AU,1686412278.0,2.81
148,pisco,-13.7,-76.2167,21.03,73.0,100.0,PE,1686412372.0,6.16
150,port mathurin,-19.6833,63.4167,24.73,74.0,3.0,MU,1686412377.0,3.01
151,homer,59.6425,-151.5483,8.91,83.0,40.0,US,1686412377.0,4.63
152,longyearbyen,78.2186,15.6401,3.91,87.0,75.0,SJ,1686412377.0,6.15
153,saldanha,-33.0117,17.9442,14.6,77.0,20.0,ZA,1686412378.0,3.6
154,mulayjah,27.271,48.4242,38.12,12.0,0.0,SA,1686412378.0,6.17
155,port alfred,-33.5906,26.891,14.54,76.0,1.0,ZA,1686412378.0,1.74
156,minas de marcona,-15.2119,-75.1103,16.83,64.0,38.0,PE,1686412378.0,5.13
157,i-n-salah,27.1935,2.4607,43.73,5.0,0.0,DZ,1686412378.0,2.97
158,revda,56.801,59.9303,13.52,93.0,63.0,RU,1686412378.0,2.55
159,maceio,-9.6658,-35.7353,28.69,61.0,40.0,BR,1686412192.0,4.92
160,pandan,14.0453,124.1694,28.14,77.0,87.0,PH,1686412378.0,0.0
161,smithers,54.7804,-127.1743,14.18,58.0,75.0,CA,1686412379.0,3.93
162,puerto baquerizo moreno,-0.9,-89.6,27.55,83.0,40.0,EC,1686412347.0,1.74
163,qaqortoq,60.7167,-46.0333,6.19,65.0,92.0,GL,1686412379.0,4.04
164,harper,4.375,-7.7169,25.94,86.0,100.0,LR,1686412379.0,0.92
165,aykhal,66.0,111.5,11.6,99.0,100.0,RU,1686412379.0,3.11
166,rakvere,59.3464,26.3558,13.68,38.0,0.0,EE,1686412379.0,2.07
167,yarmouth,41.7057,-70.2286,19.08,83.0,40.0,US,1686412379.0,2.18
168,anadyr,64.75,177.4833,3.28,74.0,0.0,RU,1686412194.0,2.06
169,rikaze,29.25,88.8833,16.26,33.0,1.0,CN,1686412379.0,2.64
170,yuzhno-kurilsk,44.0306,145.8556,8.83,98.0,97.0,RU,1686412380.0,3.69
171,lyepyel',54.8814,28.6932,17.49,43.0,13.0,BY,1686412380.0,1.34
172,salahonda,2.1019,-78.7217,27.07,77.0,62.0,CO,1686412380.0,5.67
174,swakopmund,-22.6833,14.5333,18.47,78.0,17.0,NA,1686412282.0,4.12
175,kone,-21.0595,164.8658,18.12,85.0,14.0,NC,1686412380.0,2.57
176,port augusta,-32.5,137.7667,10.68,66.0,0.0,AU,1686412380.0,5.14
177,georgetown,5.4112,100.3354,28.96,84.0,20.0,MY,1686412350.0,4.12
178,anna regina,7.2644,-58.5077,27.68,82.0,86.0,GY,1686412381.0,2.27
179,kourou,5.1552,-52.6478,29.03,65.0,39.0,GF,1686412354.0,6.39
180,vernon,50.2581,-119.2691,21.27,77.0,100.0,CA,1686412326.0,2.45
181,vorgashor,67.5833,63.95,9.45,76.0,100.0,RU,1686412381.0,7.53
182,cabo san lucas,22.8909,-109.9124,32.56,52.0,5.0,MX,1686412294.0,6.83
183,walvis bay,-22.9575,14.5053,18.53,59.0,0.0,NA,1686412381.0,2.95
184,talcahuano,-36.7167,-73.1167,6.82,93.0,0.0,CL,1686412381.0,9.26
185,sambava,-14.2667,50.1667,24.15,81.0,0.0,MG,1686412381.0,5.2
186,great bend,38.3645,-98.7648,22.01,88.0,75.0,US,1686412381.0,2.86
187,akoupe,6.39,-3.9003,25.17,96.0,98.0,CI,1686412382.0,2.57
188,guerrero negro,27.9769,-114.0611,18.29,65.0,82.0,MX,1686412225.0,1.64
189,adrasmon,40.6472,69.9856,22.58,40.0,26.0,TJ,1686412382.0,2.79
190,sidi amrane,33.4989,6.008,40.24,20.0,1.0,DZ,1686412382.0,1.71
191,afaahiti,-17.75,-149.2833,20.93,71.0,97.0,PF,1686412382.0,4.12
192,oranjemund,-28.55,16.4333,14.68,77.0,1.0,NA,1686412382.0,1.54
193,punta arenas,-53.15,-70.9167,4.06,75.0,0.0,CL,1686412383.0,1.3
194,minas,-34.3759,-55.2377,14.67,45.0,35.0,UY,1686412383.0,5.5
195,yaren,-0.5472,166.916,27.05,80.0,100.0,NR,1686412383.0,2.76
196,alice springs,-23.7,133.8833,12.34,31.0,10.0,AU,1686412383.0,4.63
197,armidale,-30.5167,151.65,2.35,90.0,0.0,AU,1686412383.0,2.78
198,klyuchi,52.2667,79.1667,15.85,68.0,0.0,RU,1686412384.0,2.24
199,luwuk,-0.9516,122.7875,25.4,88.0,54.0,ID,1686412384.0,5.22
200,fort mcmurray,56.7268,-111.381,19.77,59.0,0.0,CA,1686412389.0,12.38
201,sao gabriel da cachoeira,-0.1303,-67.0892,27.89,94.0,75.0,BR,1686412389.0,2.83
202,trevelin,-43.0858,-71.4639,0.71,86.0,50.0,AR,1686412389.0,3.71
203,sandnessjoen,66.0217,12.6316,21.29,76.0,30.0,NO,1686412390.0,2.24
204,kavieng,-2.5744,150.7967,27.46,78.0,80.0,PG,1686412390.0,1.37
205,flying fish cove,-10.4217,105.6791,24.82,88.0,100.0,CX,1686412390.0,2.74
206,apaseo el alto,20.45,-100.6167,27.62,28.0,7.0,MX,1686412390.0,13.89
207,holualoa,19.6228,-155.9522,21.91,88.0,0.0,US,1686412390.0,2.06
208,kievka,50.2619,71.5514,18.65,44.0,47.0,KZ,1686412390.0,8.95
209,puerto deseado,-47.7503,-65.8938,5.13,68.0,86.0,AR,1686412391.0,4.09
210,suihua,46.6406,126.9969,14.83,81.0,37.0,CN,1686412391.0,5.14
211,baiyin,36.5583,104.2081,23.98,20.0,100.0,CN,1686412391.0,1.75
212,puerto armuelles,8.2833,-82.8667,28.99,88.0,98.0,PA,1686412391.0,2.44
213,plastun,44.7561,136.2939,10.88,95.0,97.0,RU,1686412391.0,4.32
214,smidovich,48.6,133.8167,13.57,93.0,23.0,RU,1686412391.0,6.69
215,nuuk,64.1835,-51.7216,7.34,65.0,75.0,GL,1686412391.0,3.8
216,egilsstadir,65.2653,-14.3948,10.95,66.0,75.0,IS,1686412392.0,1.87
217,saint-louis,16.3333,-15.0,46.8,10.0,24.0,SN,1686412392.0,3.36
218,al matlin,37.2452,10.05,25.77,85.0,91.0,TN,1686412392.0,6.17
219,whitehorse,60.7161,-135.0538,11.72,61.0,20.0,CA,1686412392.0,3.91
220,kimbe,-5.5502,150.1429,24.16,90.0,97.0,PG,1686412392.0,4.02
221,severo-yeniseyskiy,60.3725,93.0408,6.54,73.0,70.0,RU,1686412392.0,8.23
222,codrington,-38.2667,141.9667,11.02,90.0,60.0,AU,1686412393.0,3.67
224,saint-georges,12.0564,-61.7485,28.89,73.0,15.0,GD,1686412393.0,3.06
225,namibe,-15.1961,12.1522,19.91,76.0,50.0,AO,1686412393.0,2.06
226,xapuri,-10.6517,-68.5044,30.82,59.0,0.0,BR,1686412393.0,4.09
227,lethem,3.3803,-59.7968,32.25,55.0,4.0,GY,1686412393.0,4.13
228,puerto real,36.5282,-6.1901,27.07,69.0,20.0,ES,1686412394.0,5.14
229,pitkyaranta,61.5734,31.4792,11.25,53.0,29.0,RU,1686412394.0,1.26
230,pacific grove,36.6177,-121.9166,13.45,87.0,100.0,US,1686412394.0,8.23
231,vadso,70.0744,29.7487,12.49,71.0,100.0,NO,1686412394.0,1.54
233,crucecita,-28.95,-58.9833,19.81,87.0,80.0,AR,1686412394.0,0.0
234,as sulayyil,20.4607,45.5779,42.14,8.0,4.0,SA,1686412395.0,4.5
235,polyarnyy,69.1989,33.4478,7.38,59.0,100.0,RU,1686412395.0,4.02
236,santa luzia,-19.7697,-43.8514,26.6,50.0,40.0,BR,1686412395.0,6.74
237,sao jose da coroa grande,-8.8978,-35.1478,27.25,67.0,57.0,BR,1686412395.0,3.0
238,ruza,55.699,36.1952,13.54,47.0,89.0,RU,1686412395.0,3.91
239,haiku-pauwela,20.9219,-156.3051,23.91,71.0,0.0,US,1686412395.0,1.26
240,manismata,-2.4667,111.0333,23.95,93.0,76.0,ID,1686412395.0,1.03
241,prince rupert,54.3161,-130.3201,11.05,93.0,100.0,CA,1686412396.0,5.25
242,ambon,-3.6954,128.1814,29.08,78.0,40.0,ID,1686412396.0,2.57
243,le vauclin,14.5452,-60.8388,32.03,62.0,75.0,MQ,1686412396.0,7.72
244,pontianak,-0.0333,109.3333,25.99,94.0,20.0,ID,1686412396.0,2.93
245,camana,-16.6228,-72.7111,19.78,70.0,46.0,PE,1686412396.0,5.33
247,caleta de carquin,-11.0925,-77.6267,22.49,73.0,81.0,PE,1686412397.0,3.7
248,sirte,31.2089,16.5887,26.67,52.0,66.0,LY,1686412397.0,4.88
249,shunyi,40.125,116.6453,21.97,49.0,0.0,CN,1686412397.0,3.6
250,zheleznodorozhnyy,55.7503,38.0042,16.12,40.0,90.0,RU,1686412402.0,5.41
251,korla,41.7597,86.1469,31.26,11.0,2.0,CN,1686412402.0,3.44
252,gaigeturi,33.4644,126.3183,20.03,94.0,75.0,KR,1686412402.0,1.19
253,ebon,4.582,168.6964,26.56,82.0,100.0,MH,1686412403.0,2.06
254,mount pearl,47.5166,-52.7813,10.25,98.0,100.0,CA,1686412403.0,6.69
255,santa cruz,-17.8,-63.1667,27.03,74.0,75.0,BO,1686412403.0,6.87
256,naspur,18.8333,79.45,34.71,33.0,55.0,IN,1686412403.0,1.76
257,kotputli,27.7167,76.2,36.76,20.0,0.0,IN,1686412403.0,5.66
258,el porvenir,13.7617,-87.3458,27.63,65.0,100.0,HN,1686412403.0,4.63
259,tucuma,-0.1833,-50.05,29.06,71.0,16.0,BR,1686412403.0,7.52
260,kharp,66.8014,65.8081,9.36,90.0,100.0,RU,1686412404.0,8.85
261,metlili chaamba,32.2667,3.6333,36.52,18.0,1.0,DZ,1686412404.0,1.54
262,labytnangi,66.6572,66.4183,10.17,84.0,100.0,RU,1686412404.0,5.84
263,ayorou,14.7308,0.9174,39.72,23.0,99.0,NE,1686412404.0,1.54
264,puerto colombia,10.9878,-74.9547,32.05,63.0,21.0,CO,1686412332.0,2.42
265,tazacorte,28.629,-17.9293,23.97,68.0,20.0,ES,1686412404.0,2.01
266,kingston,17.997,-76.7936,30.69,77.0,20.0,JM,1686412374.0,1.54
267,mata-utu,-13.2816,-176.1745,27.98,78.0,22.0,WF,1686412405.0,5.14
268,saurimo,-9.6608,20.3916,26.54,34.0,79.0,AO,1686412405.0,5.26
269,watford city,47.8022,-103.2832,18.42,59.0,0.0,US,1686412405.0,3.66
270,geraldton,-28.7667,114.6,15.23,94.0,75.0,AU,1686412405.0,7.84
271,atafu village,-8.5421,-172.5159,28.64,79.0,65.0,TK,1686412405.0,3.08
272,kegeyli shahar,42.7767,59.6078,30.05,24.0,98.0,UZ,1686412405.0,7.08
273,weno,7.4515,151.8468,24.97,100.0,100.0,FM,1686412406.0,11.32
274,pago pago,-14.2781,-170.7025,27.4,81.0,75.0,AS,1686412406.0,2.8
275,pama,11.2497,0.7075,36.59,33.0,72.0,BF,1686412406.0,1.46
276,chonchi,-42.6128,-73.8092,9.51,79.0,71.0,CL,1686412406.0,1.34
277,hereford,52.0568,-2.7148,27.78,66.0,94.0,GB,1686412407.0,7.72
279,coyhaique,-45.5752,-72.0662,3.97,70.0,20.0,CL,1686412407.0,2.12
280,jamestown,42.097,-79.2353,23.34,48.0,0.0,US,1686412407.0,2.56
281,arno,60.1167,18.6333,12.66,49.0,12.0,SE,1686412407.0,1.19
282,khorixas,-20.3667,14.9667,26.71,16.0,0.0,NA,1686412407.0,0.79
283,hadibu,12.65,54.0333,29.05,77.0,79.0,YE,1686412408.0,3.09
284,millerovo,48.9226,40.3967,22.97,57.0,100.0,RU,1686412408.0,5.08
285,safi,32.1667,-8.8333,26.34,37.0,11.0,MA,1686412408.0,1.03
286,tindouf,27.6711,-8.1474,35.25,13.0,0.0,DZ,1686412408.0,4.8
287,giyani,-23.3025,30.7187,20.82,43.0,0.0,ZA,1686412408.0,2.47
288,shingu,33.7333,135.9833,18.73,95.0,100.0,JP,1686412408.0,0.89
289,walla walla,46.0646,-118.343,19.73,70.0,81.0,US,1686412408.0,2.0
290,canico,32.6333,-16.85,25.95,73.0,20.0,PT,1686412409.0,2.24
291,pemangkat,1.1667,108.9667,26.37,85.0,91.0,ID,1686412409.0,3.62
292,cajabamba,-7.6167,-78.05,17.84,59.0,28.0,PE,1686412409.0,2.2
293,umba,66.6871,34.3429,10.55,47.0,99.0,RU,1686412409.0,3.13
294,abaza,52.655,90.0928,16.6,97.0,99.0,RU,1686412409.0,6.88
295,newman,37.3138,-121.0208,16.8,11.0,100.0,US,1686412409.0,6.72
296,hammerfest,70.6634,23.6821,12.25,50.0,0.0,NO,1686412409.0,4.63
297,tvoroyri,61.5556,-6.8111,10.04,93.0,70.0,FO,1686412410.0,1.2
298,saint-pierre,-21.3393,55.4781,24.82,65.0,100.0,RE,1686412410.0,6.17
299,bandon,51.7469,-8.7425,16.77,92.0,97.0,IE,1686412410.0,1.91
300,prainha,-1.8,-53.48,30.81,58.0,6.0,BR,1686412415.0,4.46
301,dunedin,-45.8742,170.5036,8.22,52.0,45.0,NZ,1686412415.0,2.29
302,qiongshan,20.0058,110.3542,26.99,94.0,0.0,CN,1686412415.0,3.09
303,gangneung,37.7556,128.8961,16.31,93.0,78.0,KR,1686412415.0,6.89
304,derzhavinsk,51.1,66.3167,20.45,31.0,6.0,KZ,1686412416.0,1.09
305,hazard,37.2495,-83.1932,24.83,31.0,6.0,US,1686412416.0,5.37
306,cozumel,20.5083,-86.9458,31.64,85.0,47.0,MX,1686412126.0,9.85
307,rechytsa,52.3617,30.3916,18.06,93.0,100.0,BY,1686412416.0,3.6
308,taoudenni,22.6783,-3.9836,43.79,8.0,1.0,ML,1686412416.0,4.63
309,jefferson city,38.5767,-92.1735,27.13,36.0,0.0,US,1686412416.0,2.88
310,as samawah,31.332,45.2944,40.75,13.0,2.0,IQ,1686412416.0,3.08
311,calama,-22.4667,-68.9333,17.27,4.0,0.0,CL,1686412416.0,3.4
312,wynyard,-41.0,145.7167,11.1,81.0,19.0,AU,1686412417.0,3.09
313,monteiro,-7.8894,-37.12,30.29,40.0,35.0,BR,1686412417.0,0.72
314,magadan,59.5667,150.8,5.81,92.0,61.0,RU,1686412417.0,2.65
315,glace bay,46.1969,-59.957,16.72,67.0,75.0,CA,1686412417.0,7.16
316,rongelap,11.1635,166.8941,27.77,83.0,100.0,MH,1686412417.0,2.28
317,hami,42.8,93.45,31.81,11.0,1.0,CN,1686412417.0,1.66
318,steinbach,50.1667,8.5667,29.2,37.0,46.0,DE,1686412417.0,3.09
319,tual,-5.6667,132.75,27.54,81.0,100.0,ID,1686412417.0,1.68
320,wajir,1.7471,40.0573,32.98,40.0,40.0,KE,1686412418.0,3.68
321,macapa,0.0389,-51.0664,31.99,70.0,40.0,BR,1686412418.0,6.17
322,ambodifotatra,-16.9833,49.85,25.29,66.0,0.0,MG,1686412418.0,7.34
323,ulanhot,46.0833,122.0833,13.53,85.0,89.0,CN,1686412418.0,2.89
324,karratha,-20.7377,116.8463,21.31,53.0,2.0,AU,1686412418.0,3.64
325,quellon,-43.1167,-73.6167,9.14,71.0,20.0,CL,1686412418.0,5.14
326,ulaangom,49.9811,92.0667,22.32,36.0,32.0,MN,1686412418.0,7.36
327,nianzishan,47.5167,122.8833,14.08,79.0,64.0,CN,1686412418.0,5.48
328,nova sintra,14.8667,-24.7167,22.39,82.0,5.0,CV,1686412419.0,5.14
329,port-cartier,50.0334,-66.8654,15.42,67.0,92.0,CA,1686412419.0,1.54
330,carbonear,47.7332,-53.2148,10.97,97.0,100.0,CA,1686412419.0,2.24
331,meerane,50.85,12.4667,25.99,53.0,0.0,DE,1686412419.0,5.03
332,mahmudabad,27.3,81.1167,38.22,16.0,0.0,IN,1686412419.0,1.79
333,la junta,37.985,-103.5438,21.7,37.0,28.0,US,1686412419.0,2.53
334,colonia,50.9333,6.95,31.09,26.0,0.0,DE,1686412301.0,4.12
335,bir el ater,34.7449,8.0602,27.4,38.0,5.0,DZ,1686412419.0,5.14
336,xilin hot,43.9667,116.0333,9.79,82.0,80.0,CN,1686412420.0,4.63
337,castillos,-34.1667,-53.8333,15.22,54.0,89.0,UY,1686412420.0,1.17
338,bobo-dioulasso,11.1771,-4.2979,30.25,58.0,20.0,BF,1686412420.0,3.77
339,fale old settlement,-9.3852,-171.2468,28.4,81.0,74.0,TK,1686412420.0,2.83
340,taourirt,34.4073,-2.8973,28.96,39.0,3.0,MA,1686412420.0,2.06
341,khorramabad,33.4878,48.3558,31.79,14.0,20.0,IR,1686412420.0,6.88
342,bastrop,32.7562,-91.8724,32.05,60.0,0.0,US,1686412330.0,0.51
343,jakobstad,63.6749,22.7026,17.09,40.0,28.0,FI,1686412420.0,1.1
344,yershov,51.3513,48.2766,21.74,55.0,56.0,RU,1686412421.0,2.29
345,isoka,-10.1606,32.6335,18.82,61.0,11.0,ZM,1686412421.0,4.16
346,jaciara,-15.9653,-54.9683,32.83,30.0,1.0,BR,1686412421.0,1.3
347,la libertad,-2.2333,-80.9,27.81,78.0,75.0,EC,1686412134.0,3.0
348,timimoun,29.2639,0.231,41.21,6.0,0.0,DZ,1686412421.0,2.44
349,filadelfia,39.9523,-75.1638,25.68,49.0,20.0,US,1686412255.0,4.16
350,fernie,49.5,-115.0687,18.05,72.0,93.0,CA,1686412304.0,3.41
351,aghstafa,41.1189,45.4539,19.74,92.0,99.0,AZ,1686412426.0,3.47
352,sanctuary point,-35.1114,150.629,11.53,79.0,3.0,AU,1686412427.0,3.67
353,luumaki,60.9262,27.5814,16.03,33.0,14.0,FI,1686412427.0,3.15
354,petra,30.3222,35.4793,22.63,43.0,1.0,JO,1686412427.0,0.8
355,vershino-darasunskiy,52.35,115.5167,10.17,78.0,4.0,RU,1686412427.0,3.62
356,bangassou,4.7413,22.8184,26.69,61.0,100.0,CF,1686412427.0,2.57
357,kirensk,57.7853,108.1119,16.38,95.0,92.0,RU,1686412427.0,4.12
358,kstovo,56.1473,44.1979,12.66,55.0,21.0,RU,1686412427.0,3.58
359,uacu cungo,-11.3634,15.1208,25.97,32.0,89.0,AO,1686412427.0,1.34
360,petropavlovsk-kamchatsky,53.0452,158.6483,11.33,54.0,75.0,RU,1686412428.0,1.49
361,mount gambier,-37.8333,140.7667,8.79,97.0,60.0,AU,1686412214.0,0.45
363,fisterra,42.9049,-9.2629,22.23,87.0,54.0,ES,1686412428.0,5.14
364,noumea,-22.2763,166.4572,20.0,99.0,0.0,NC,1686411833.0,4.43
365,nahiyat ash shinafiyah,31.5874,44.6602,41.01,13.0,4.0,IQ,1686412428.0,4.12
366,villa angela,-27.5738,-60.7153,22.87,67.0,70.0,AR,1686412428.0,5.15
367,hasaki,35.7333,140.8333,21.23,94.0,100.0,JP,1686412428.0,3.09
368,olovyannaya,50.95,115.5667,14.7,67.0,68.0,RU,1686412429.0,5.89
369,jijiga,9.35,42.8,20.1,77.0,94.0,ET,1686412429.0,1.34
370,labrador city,52.9463,-66.9114,15.95,63.0,40.0,CA,1686412429.0,4.12
372,atar,20.5169,-13.0499,43.03,17.0,0.0,MR,1686412429.0,4.81
373,marsa alam,25.0757,34.8918,30.94,54.0,0.0,EG,1686412429.0,1.51
374,ocala,29.1872,-82.1401,31.21,65.0,20.0,US,1686412261.0,2.09
376,tyazhinskiy,56.116,88.524,11.41,92.0,100.0,RU,1686412430.0,4.92
377,merritt,50.1123,-120.7942,16.85,70.0,97.0,CA,1686412430.0,5.38
378,vila franca do campo,37.7167,-25.4333,19.23,65.0,6.0,PT,1686412430.0,3.13
379,sale,34.0389,-6.8166,26.46,60.0,40.0,MA,1686412430.0,4.37
380,vilyuchinsk,52.9306,158.4028,12.15,70.0,63.0,RU,1686412430.0,0.87
381,salinas,36.6777,-121.6555,14.79,83.0,100.0,US,1686412431.0,0.43
382,kidal,18.4411,1.4078,42.78,9.0,7.0,ML,1686412431.0,3.34
383,chalus,36.655,51.4204,24.7,73.0,20.0,IR,1686412431.0,3.54
384,niafunke,15.9322,-3.9906,43.98,9.0,1.0,ML,1686412431.0,1.49
385,mantua,45.1667,10.7833,27.58,64.0,82.0,IT,1686412431.0,6.29
386,westport,41.1415,-73.3579,23.04,55.0,0.0,US,1686412166.0,1.65
387,palikir - national government center,6.9248,158.1611,24.41,94.0,100.0,FM,1686412431.0,2.79
388,mil'kovo,55.6078,37.7956,16.11,47.0,96.0,RU,1686412431.0,2.57
389,zinjibar,13.1287,45.3807,32.97,57.0,100.0,YE,1686412432.0,4.72
390,telimele,10.9167,-13.3333,30.95,55.0,82.0,GN,1686412432.0,9.0
391,kudahuvadhoo,2.6708,72.8944,28.45,77.0,74.0,MV,1686412432.0,2.51
392,ylitornio,66.3089,23.6773,13.8,42.0,72.0,FI,1686412432.0,7.93
393,awjilah,29.1081,21.2869,33.64,17.0,55.0,LY,1686412432.0,3.6
394,kayangel,8.0823,134.7173,28.62,75.0,93.0,PW,1686412432.0,3.09
395,betio village,1.358,172.9211,29.02,77.0,41.0,KI,1686412432.0,8.93
396,dompu,-8.5356,118.4622,23.49,95.0,92.0,ID,1686412432.0,1.21
397,sevlievo,43.0258,25.1136,26.19,65.0,29.0,BG,1686412433.0,1.86
398,ancud,-41.8697,-73.8203,8.48,69.0,68.0,CL,1686412433.0,2.86
399,karagandy,49.8019,73.1021,13.97,43.0,23.0,KZ,1686412433.0,3.85
400,tumut,-35.3,148.2167,3.84,88.0,1.0,AU,1686412438.0,0.91
401,udachny,66.4167,112.4,9.14,100.0,100.0,RU,1686412438.0,1.47
402,isabela,6.7085,121.9711,27.03,79.0,100.0,PH,1686412438.0,1.44
403,nova olimpia,-14.7972,-57.2881,33.5,34.0,1.0,BR,1686412438.0,8.23
404,saipan,15.1355,145.701,28.39,100.0,20.0,MP,1686412439.0,4.98
405,maua,-23.6678,-46.4614,27.04,44.0,0.0,BR,1686412207.0,4.82
406,villa gesell,-37.2639,-56.973,10.59,44.0,53.0,AR,1686412439.0,3.41
407,santa elena de uairen,4.6167,-61.1333,26.34,64.0,54.0,VE,1686412439.0,4.42
408,mejit,10.2753,170.8646,27.78,77.0,100.0,MH,1686412439.0,5.05
409,howrah,22.5892,88.3103,30.0,79.0,75.0,IN,1686412439.0,1.54
410,remire-montjoly,4.9167,-52.2667,29.02,70.0,0.0,GF,1686412439.0,1.95
411,iskateley,67.6803,53.1512,5.14,64.0,100.0,RU,1686412439.0,7.2
412,sandersville,32.9815,-82.8101,28.69,34.0,12.0,US,1686412439.0,2.71
413,bokoro,12.3807,17.0568,33.04,41.0,97.0,TD,1686412440.0,1.64
414,ravar,31.2656,56.8055,31.75,21.0,14.0,IR,1686412440.0,0.83
415,bac lieu,9.285,105.7244,27.51,83.0,99.0,VN,1686412440.0,4.78
416,bodaybo,57.8506,114.1933,17.32,61.0,44.0,RU,1686412440.0,4.06
417,diapaga,12.0708,1.7889,37.88,27.0,77.0,BF,1686412440.0,5.64
418,la mira,18.035,-102.3266,31.55,49.0,98.0,MX,1686412440.0,0.27
419,keflavik,64.0049,-22.5624,8.95,57.0,20.0,IS,1686412440.0,6.91
420,rio grande,-32.035,-52.0986,15.06,95.0,100.0,BR,1686412441.0,7.32
421,tabou,4.423,-7.3528,25.61,88.0,100.0,CI,1686412441.0,2.11
422,opuwo,-18.0607,13.84,26.47,16.0,56.0,NA,1686412441.0,0.45
423,mayna,54.1135,47.6231,11.45,74.0,97.0,RU,1686412441.0,7.83
424,al kharj,24.155,47.3346,42.32,8.0,0.0,SA,1686412441.0,4.74
425,los angeles,34.0522,-118.2437,17.95,85.0,100.0,US,1686411867.0,3.6
426,kodinsk,58.6881,99.1844,15.55,72.0,97.0,RU,1686412441.0,3.29
427,dauphin,51.1494,-100.0502,15.08,58.0,20.0,CA,1686412442.0,2.52
428,port douglas,-16.4833,145.4667,20.65,82.0,52.0,AU,1686412442.0,1.1
429,kerikeri,-35.2268,173.9474,8.09,94.0,11.0,NZ,1686412442.0,2.42
430,mogocha,53.7333,119.7667,11.33,84.0,8.0,RU,1686412442.0,4.63
431,chake chake,-5.2459,39.7666,25.06,83.0,54.0,TZ,1686412442.0,1.85
432,port lincoln,-34.7333,135.8667,13.41,67.0,69.0,AU,1686412442.0,1.74
433,dabhol,17.6,73.1667,28.19,73.0,99.0,IN,1686412443.0,1.99
434,dame-marie,18.5667,-74.4167,29.96,63.0,97.0,HT,1686412443.0,3.19
435,kilinochchi,9.3961,80.3982,27.92,77.0,89.0,LK,1686412443.0,4.08
436,kurchatov,51.6601,35.6521,18.23,88.0,100.0,RU,1686412199.0,2.0
437,zajecar,43.9036,22.2641,26.69,71.0,22.0,RS,1686412443.0,2.57
439,fortuna,40.5982,-124.1573,12.74,95.0,100.0,US,1686412363.0,7.03
440,pangody,65.85,74.4859,13.28,42.0,100.0,RU,1686412444.0,4.63
441,ochakiv,46.6128,31.5498,21.29,72.0,100.0,UA,1686412444.0,2.84
442,bizerte,37.2744,9.8739,27.0,65.0,40.0,TN,1686412444.0,7.72
444,pokrovsk,48.282,37.1758,21.07,63.0,100.0,UA,1686412444.0,3.6
445,guarapari,-20.6667,-40.4975,29.38,61.0,0.0,BR,1686412445.0,3.87
446,paoua,7.2427,16.4406,27.9,65.0,100.0,CF,1686412445.0,3.32
447,quelimane,-17.8786,36.8883,22.13,84.0,0.0,MZ,1686412445.0,1.3
448,north bay,46.3168,-79.4663,22.19,63.0,75.0,CA,1686412445.0,2.93
449,kalmunai,7.4167,81.8167,29.09,73.0,91.0,LK,1686412445.0,2.62
450,guatire,10.4762,-66.5427,32.05,50.0,37.0,VE,1686412450.0,0.0
451,batang,-6.4846,110.7083,25.93,82.0,11.0,ID,1686412451.0,7.84
452,aban,56.67,96.06,14.88,77.0,100.0,RU,1686412451.0,1.84
453,umm kaddadah,13.6017,26.6876,28.25,51.0,100.0,SD,1686412451.0,1.83
454,khorramdarreh,36.213,49.196,20.73,54.0,49.0,IR,1686412451.0,5.14
455,beau vallon,-20.4189,57.6953,24.13,69.0,20.0,MU,1686412451.0,1.33
456,ranau,5.9538,116.6641,22.07,94.0,100.0,MY,1686412451.0,3.7
457,cockburn town,21.4612,-71.1419,27.89,84.0,36.0,TC,1686412452.0,4.76
458,burlington,39.8835,-74.6413,25.43,53.0,0.0,US,1686412452.0,1.71
459,angaur state,6.906,134.13,28.58,76.0,90.0,PW,1686412453.0,2.36
460,rabak,13.1809,32.74,33.05,42.0,46.0,SD,1686412453.0,2.3
461,morondava,-20.2833,44.2833,23.97,70.0,1.0,MG,1686412453.0,3.13
462,rio de janeiro,-22.9028,-43.2075,32.97,57.0,0.0,BR,1686412377.0,0.0
463,melo,-32.3667,-54.1833,12.21,87.0,100.0,UY,1686412453.0,6.37
464,raduzhnyy,62.0961,77.475,11.21,45.0,61.0,RU,1686412454.0,2.57
465,purranque,-40.9167,-73.1667,7.93,84.0,68.0,CL,1686412454.0,3.09
466,alo,7.4178,6.7371,30.2,66.0,96.0,NG,1686412454.0,8.82
468,kruisfontein,-34.0033,24.7314,14.38,78.0,3.0,ZA,1686412454.0,2.24
469,paka,4.6374,103.4368,25.96,94.0,38.0,MY,1686412454.0,3.23
470,islamkot,24.6997,70.177,33.83,50.0,0.0,PK,1686412455.0,1.99
471,escarcega,18.6089,-90.7454,35.54,38.0,34.0,MX,1686412455.0,5.22
472,gokwe,-18.2048,28.9349,20.75,24.0,58.0,ZW,1686412455.0,4.72
473,rabo de peixe,37.8,-25.5833,18.73,68.0,20.0,PT,1686412455.0,1.96
474,puerto carreno,6.189,-67.4859,30.57,62.0,21.0,CO,1686412455.0,2.81
475,bratske,47.865,31.5731,23.83,46.0,100.0,UA,1686412455.0,3.25
476,pemba,-12.974,40.5178,25.54,74.0,2.0,MZ,1686412456.0,2.57
477,ola,59.5833,151.2833,5.62,94.0,45.0,RU,1686412456.0,9.12
478,sol'-iletsk,51.1631,54.9918,22.99,38.0,20.0,RU,1686412456.0,5.04
479,beloha,-25.1667,45.05,19.73,89.0,0.0,MG,1686412456.0,1.48
480,marquette,46.5333,-87.6335,16.81,84.0,62.0,US,1686412456.0,2.57
481,isangel,-19.55,169.2667,18.06,82.0,20.0,VU,1686412456.0,1.31
482,acarau,-2.8856,-40.12,28.98,69.0,35.0,BR,1686412335.0,6.21
483,winnemucca,40.973,-117.7357,14.03,77.0,0.0,US,1686412457.0,1.92
484,san pedro,14.35,121.0167,25.57,97.0,100.0,PH,1686412457.0,1.54
485,kochubey,44.3861,46.5825,24.07,61.0,32.0,RU,1686412457.0,1.17
486,heidelberg,-26.5048,28.3592,16.51,28.0,0.0,ZA,1686412457.0,2.94
487,kailua-kona,19.6406,-155.9956,23.98,86.0,0.0,US,1686412280.0,4.25
488,prado,-17.3411,-39.2208,26.24,67.0,51.0,BR,1686412458.0,2.24
489,moree,-29.4667,149.85,9.84,70.0,0.0,AU,1686412458.0,3.35
490,chauk,20.8833,94.8167,29.24,58.0,99.0,MM,1686412458.0,0.41
491,leninskiy,54.2781,37.4558,14.26,63.0,99.0,RU,1686412458.0,6.57
492,taltal,-25.4,-70.4833,18.21,72.0,28.0,CL,1686412459.0,5.63
493,parauna,-16.9478,-50.4486,30.02,32.0,0.0,BR,1686412459.0,6.71
494,afif,23.9065,42.9172,36.67,9.0,21.0,SA,1686412459.0,3.65
495,galliano,29.4422,-90.2992,32.78,62.0,40.0,US,1686412459.0,3.48
496,dwarka,22.2394,68.9678,29.8,81.0,46.0,IN,1686412459.0,2.95
497,banda aceh,5.5577,95.3222,28.27,74.0,98.0,ID,1686412460.0,1.99
498,khandyga,62.6667,135.6,11.91,61.0,100.0,RU,1686412460.0,3.43
499,happy valley-goose bay,53.3168,-60.3315,15.17,67.0,40.0,CA,1686412460.0,2.65
500,goure,13.9835,10.2704,37.88,25.0,82.0,NE,1686412465.0,4.63
501,archangelos,36.2149,28.1149,25.99,58.0,2.0,GR,1686412465.0,0.72
502,katsuura,35.1333,140.3,21.24,96.0,100.0,JP,1686412465.0,0.48
503,kristiansund,63.1115,7.732,22.03,52.0,5.0,NO,1686412465.0,0.94
505,kyren,51.6828,102.1408,16.55,82.0,96.0,RU,1686412466.0,0.51
506,naze,28.3667,129.4833,24.51,88.0,100.0,JP,1686412466.0,4.31
507,perugorria,-29.3413,-58.6106,19.1,89.0,92.0,AR,1686412466.0,3.09
508,milazzo,38.2212,15.2383,26.32,68.0,65.0,IT,1686412466.0,3.09
509,upata,8.0086,-62.3989,30.11,41.0,23.0,VE,1686412466.0,2.77
510,sretensk,52.2453,117.7093,15.09,68.0,62.0,RU,1686412466.0,3.68
511,kayar,14.9192,-17.1211,31.53,61.0,37.0,SN,1686412467.0,5.4
512,la passe,45.5549,-0.8967,27.13,68.0,8.0,FR,1686412467.0,3.12
513,touros,-5.1989,-35.4608,29.63,62.0,27.0,BR,1686412467.0,2.06
514,amursk,50.2261,136.8994,12.59,92.0,1.0,RU,1686412467.0,4.91
515,san julian,21.0167,-102.1667,27.3,19.0,38.0,MX,1686412467.0,7.36
516,kargopol',61.5071,38.9456,8.8,49.0,92.0,RU,1686412467.0,0.98
517,laela,-8.5667,32.05,21.22,42.0,45.0,TZ,1686412467.0,8.67
518,igrim,63.1906,64.4162,11.46,83.0,51.0,RU,1686412468.0,1.25
519,miracema do tocantins,-9.5618,-48.3967,34.0,36.0,42.0,BR,1686412468.0,4.87
520,solon,41.3898,-81.4412,25.7,42.0,0.0,US,1686412468.0,0.99
521,mendi,-6.1761,143.6513,12.84,98.0,99.0,PG,1686412468.0,0.84
522,gurun,5.8172,100.4738,27.88,89.0,95.0,MY,1686412468.0,3.62
523,rio verde,21.9333,-99.9833,29.26,54.0,69.0,MX,1686412468.0,1.54
524,clinton,42.587,-82.9199,27.22,39.0,75.0,US,1686412261.0,4.63
525,banff,51.1762,-115.5698,16.21,59.0,100.0,CA,1686412469.0,5.73
526,sarmiento,-45.5882,-69.07,5.14,46.0,4.0,AR,1686412469.0,5.14
527,yorkton,51.2167,-102.4677,14.91,58.0,0.0,CA,1686412469.0,1.54
528,sapucaia,-29.8333,-51.15,28.66,50.0,40.0,BR,1686412469.0,1.83
529,san nicolas de los arroyos,-33.3358,-60.2252,12.71,35.0,94.0,AR,1686412469.0,4.63
530,nova vicosa,-17.8919,-39.3719,26.13,68.0,51.0,BR,1686412469.0,5.02
531,bantay,17.5847,120.3892,26.99,86.0,95.0,PH,1686412470.0,1.76
532,marsh harbour,26.5412,-77.0636,28.89,66.0,0.0,BS,1686412470.0,4.62
533,powell river,49.8496,-124.5361,13.35,100.0,100.0,CA,1686412470.0,6.5
534,damghan,36.1683,54.348,26.82,33.0,16.0,IR,1686412470.0,1.08
535,lerwick,60.1545,-1.1494,13.0,79.0,98.0,GB,1686412470.0,2.07
536,krasnyy chikoy,50.3643,108.7512,13.74,48.0,4.0,RU,1686412470.0,0.17
537,saudarkrokur,65.7461,-19.6394,8.66,53.0,96.0,IS,1686412470.0,2.68
538,namie,37.4833,141.0,20.4,94.0,100.0,JP,1686412471.0,0.0
539,leningradskaya,46.3214,39.3877,19.93,74.0,98.0,RU,1686412471.0,5.73
540,menongue,-14.6585,17.691,25.0,20.0,1.0,AO,1686412471.0,3.96
542,douliu,23.7094,120.5433,29.31,96.0,100.0,TW,1686412471.0,0.73
543,cihanbeyli,38.6607,32.9244,23.43,42.0,81.0,TR,1686412471.0,5.66
544,san marcos,33.1434,-117.1661,17.69,91.0,100.0,US,1686412471.0,0.78
545,akureyri,65.6835,-18.0878,11.96,32.0,75.0,IS,1686412471.0,4.12
546,mahdia,35.5047,11.0622,24.97,79.0,49.0,TN,1686412471.0,7.39
547,itaituba,-4.2761,-55.9836,33.09,66.0,40.0,BR,1686412472.0,1.93
548,ilorin,8.5,4.55,24.2,94.0,40.0,NG,1686412472.0,2.34
549,barabinsk,55.3571,78.357,14.34,66.0,8.0,RU,1686412472.0,2.0
550,luanda,-8.8368,13.2343,27.0,65.0,20.0,AO,1686412477.0,3.11
551,malyye derbety,47.9547,44.6808,26.25,36.0,100.0,RU,1686412477.0,1.67
552,east london,-33.0153,27.9116,17.14,58.0,1.0,ZA,1686412330.0,2.94
553,fuglafjordur,62.244,-6.814,12.26,81.0,100.0,FO,1686412477.0,7.54
554,okha,53.5739,142.9478,12.71,72.0,100.0,RU,1686412477.0,1.31
555,missoula,47.0166,-113.8009,11.42,79.0,75.0,US,1686412217.0,2.21
556,port macquarie,-31.4333,152.9167,8.83,86.0,0.0,AU,1686412478.0,3.09
557,kamennomostskiy,44.2983,40.1856,17.65,98.0,100.0,RU,1686412478.0,3.61
558,roma,43.2128,-75.4557,20.38,76.0,20.0,US,1686412478.0,1.99
559,christchurch,-43.5333,172.6333,9.41,100.0,19.0,NZ,1686412061.0,2.57
560,ormara,25.2088,64.6357,28.87,86.0,0.0,PK,1686412478.0,1.11
561,mana,5.6592,-53.7767,30.21,65.0,21.0,GF,1686412478.0,2.17
562,cannonvale,-20.2833,148.7,20.66,86.0,14.0,AU,1686412478.0,0.89
563,madera,37.1666,-119.8343,23.87,68.0,100.0,US,1686412323.0,0.0
564,bel ombre,-4.6167,55.4167,27.91,78.0,20.0,SC,1686412479.0,2.57
565,isiro,2.7739,27.616,21.48,96.0,100.0,CD,1686412479.0,4.12
566,hailey,43.5196,-114.3153,18.27,66.0,0.0,US,1686412479.0,5.1
